city,latitude,longitude
Jakarta,-6.2088,106.8456
Surabaya,-7.2575,112.7521
Bandung,-6.9175,107.6191
Medan,3.5952,98.6722
Semarang,-6.9667,110.4167
Makassar,-5.1477,119.4327
Palembang,-2.9761,104.7754
Bekasi,-6.2383,106.9756
Depok,-6.4025,106.7942
Tangerang,-6.1783,106.6319